[
  {
    "id": "center",
    "name": "Центр (Невский/Садовая)",
    "lat": 59.935,
    "lon": 30.325,
    "r": 0.006
  },
  {
    "id": "petrogradskaya",
    "name": "Петроградская",
    "lat": 59.965,
    "lon": 30.31,
    "r": 0.006
  },
  {
    "id": "vasilievsky",
    "name": "Васильевский остров",
    "lat": 59.94,
    "lon": 30.27,
    "r": 0.006
  },
  {
    "id": "south",
    "name": "Спальный юг (Купчино)",
    "lat": 59.83,
    "lon": 30.38,
    "r": 0.007
  },
  {
    "id": "vyborgskaya",
    "name": "Выборгская сторона",
    "lat": 59.99,
    "lon": 30.35,
    "r": 0.006
  },
  {
    "id": "primorsky",
    "name": "Приморский район",
    "lat": 59.99,
    "lon": 30.25,
    "r": 0.006
  },
  {
    "id": "moskovskiy",
    "name": "Московский проспект",
    "lat": 59.89,
    "lon": 30.32,
    "r": 0.006
  },
  {
    "id": "nevsky",
    "name": "Невский район",
    "lat": 59.9,
    "lon": 30.45,
    "r": 0.007
  },
  {
    "id": "admiralteysky",
    "name": "Адмиралтейский",
    "lat": 59.925,
    "lon": 30.3,
    "r": 0.005
  },
  {
    "id": "kalininsky",
    "name": "Калининский",
    "lat": 59.97,
    "lon": 30.38,
    "r": 0.007
  }
]